{ "places": [
    {
        "name": "Café BUN",
        "lat": 43.607508,
        "lon": 3.87793,
        "openHours": "Monday 12h00 - 19h00, Tuesday to Wednesday 07h30 - 19h00 and Saturday, 09h30 - 19h00",
        "address":  "05 rue des Etuves",
        "type" : "coffee/restaurant",
        "url": "https://fr-fr.facebook.com/BUNcafe",
        "power": {"available": true},
        "wifi": {"available": true}
    },
    {
        "name": "Fairview Coffee",
        "lat": 43.606992,
        "lon": 3.877552,
        "openHours": "Tuesday to Saturday 09h30 - 19h00 and Sundays, 11h00 - 17h00",
        "address":  "6 Rue Loys",
        "type": "coffee/restaurant",
        "url": "https://www.facebook.com/FairviewCoffee",
        "power": {"available": true },
        "wifi": {"available": true }
    },
    {
        "name": "Cowork'in Montpellier",
        "lat": 43.609229,
        "lon": 3.869569,
        "openHours": "From Monday to Friday - 9am to 6pm",
        "address": "19 Rue de l'Ecole de Droit",
        "type": "coworking",
        "url": "http://coworkinmontpellier.org/",
        "power": {"available": true },
        "wifi": {"available": true }
    },
    {
        "name": "La Panacée",
        "lat": 43.61282,
        "lon": 3.87811,
        "openHours": "From Wednesday to Saturday - 10am to 1am and Sundays, 10am to 18pm",
        "address": "14, rue de l’école de pharmacie",
        "type": "café, musée",
        "url": "http://lapanacee.org",
        "power": {"available": true },
        "wifi": {"available": true }
    },
    {
        "name": "Scopyleft",
        "lat": 43.65637,
        "lon": 3.89018,
        "openHours": "From Monday to Friday - 9am to 19pm",
        "address": "5, chemin de la Magnanerie - 34830 Clapiers",
        "type": "tiers lieu",
        "url": "http://scopyleft.fr",
        "power": {"available": true },
        "wifi": {"available": true }
    }
]
}
